Hotel_id,Name,Latitude,Longitude,Air conditioning,Housekeeping,Private balcony,Private bathrooms,VIP room facilities,Complimentary toiletries,Room service,Telephone,Minibar,Flatscreen TV,Wifi,Pool,Bar / lounge,Poolside bar,Free parking,Breakfast,Restaurant,Airport transportation,Car hire,Taxi service,Banquet room,Meeting rooms,Conference facilities,Spa,Sauna,Currency exchange,24-hour security,Concierge,Baggage storage,Sun terrace,Shops,Butler service,First aid kit,Infirmary,24-hour front desk,Private check-in / check-out,Express check-in / check-out,Dry cleaning,Laundry service,Shoeshine,Ocean view,City view,Landmark view,Pool view,Non-smoking rooms,Smoking rooms available,Suites,Number of reviews,Rating,Price
1371418,Colonel's Retreat,28.56865882873535,77.23319244384766,1,1,0,1,0,1,0,0,0,1,1,0,0,0,1,0,0,1,1,1,0,0,0,0,0,0,1,0,1,1,0,0,0,0,0,0,0,0,1,0,0,1,0,0,1,0,0,928,4.5,2213.36
11561000,Roseate House New Delhi,28.55083274841309,77.1205062866211,1,0,0,0,1,0,1,0,1,1,1,1,1,1,1,0,1,1,1,1,1,1,1,1,0,1,1,1,1,0,0,1,0,0,1,1,1,1,1,1,0,0,0,0,1,1,1,"2,252",5.0,4767.67
8867537,Hotel Novotel New Delhi Aerocity,28.5533504486084,77.12345886230469,1,1,0,0,1,0,1,0,1,1,1,1,1,0,1,0,1,1,1,1,1,1,1,1,1,1,1,1,1,0,0,1,0,0,1,1,1,1,1,1,0,0,0,0,1,1,1,"2,740",4.5,3236.5
306957,Radisson Blu Plaza Delhi Airport,28.54374122619629,77.11980438232422,1,1,0,1,1,1,1,1,1,1,1,1,1,0,1,0,1,1,1,1,1,1,1,1,1,1,1,1,1,0,1,1,1,0,1,0,1,1,1,1,0,1,0,1,1,1,1,"7,078",4.5,6336.0
7891473,Vivanta New Delhi Dwarka,28.55829429626465,77.06291198730469,1,1,0,0,1,1,1,1,1,1,1,1,1,1,1,0,1,1,1,1,1,1,1,1,0,1,1,1,1,0,0,1,0,0,1,0,1,1,1,1,0,1,0,0,1,1,1,"2,060",4.5,4320.21
3583700,"Lemon Tree Premier, Delhi Airport",28.552154541015625,77.1207504272461,1,0,0,0,1,0,1,0,1,1,1,1,1,1,1,0,1,1,1,1,1,1,1,1,0,1,1,1,1,0,0,1,0,0,1,0,1,1,1,1,0,0,0,0,1,1,1,"4,073",4.5,2894.96
306957,Radisson Blu Plaza Delhi Airport,28.54374122619629,77.11980438232422,1,1,0,1,1,1,1,1,1,1,1,1,1,0,1,0,1,1,1,1,1,1,1,1,1,1,1,1,1,0,1,1,1,0,1,0,1,1,1,1,0,1,0,1,1,1,1,"7,078",4.5,6336.0
2178190,Ginger East Delhi,28.66583824157715,77.30415344238281,1,1,0,0,0,1,1,1,0,1,1,0,0,0,1,0,1,1,1,0,0,1,1,0,0,1,1,1,0,0,0,0,0,0,1,0,0,1,1,0,0,0,0,0,1,0,1,708,4.5,4030.99
302181,"Taj Palace, New Delhi",28.59536552429199,77.1707534790039,1,1,0,1,1,1,1,1,1,1,1,1,1,1,1,0,1,1,1,1,1,1,1,1,1,1,1,1,1,0,0,1,1,0,1,0,0,1,1,1,0,1,0,1,1,1,1,"4,140",4.5,5070.16
11983212,The Muse Sarovar Portico New Delhi Kapashera,28.531139373779297,77.08521270751953,1,0,0,0,1,0,1,0,1,1,1,0,0,0,1,0,1,1,0,1,1,1,1,0,0,0,1,1,0,0,0,1,0,0,1,0,0,1,1,0,0,0,0,0,1,1,1,953,5.0,5394.32
299121,Eros Hotel,28.54980087280273,77.2490005493164,1,0,0,0,1,0,1,0,1,1,1,1,1,0,1,0,1,1,1,1,1,1,1,1,0,1,1,1,0,0,1,1,0,0,1,0,0,1,1,1,0,0,0,0,1,1,1,"2,832",4.5,3224.7
306937,The Claridges Hotel,28.60069465637207,77.21653747558594,1,1,1,0,1,0,1,0,1,1,1,1,1,0,1,0,1,1,1,1,1,1,1,1,1,1,1,1,1,0,0,1,0,0,1,0,1,1,1,1,0,0,0,0,1,0,1,"4,134",4.5,7560.0
15521533,Colonels Retreat 2,28.57390022277832,77.23593139648438,1,1,0,1,0,1,1,0,0,0,1,0,0,0,1,0,1,1,0,0,0,0,0,0,0,0,1,0,1,0,0,0,0,0,0,0,0,0,1,0,0,1,0,0,1,0,0,17,5.0,2799.0
302332,The Park New Delhi,28.62877082824707,77.21637725830078,1,1,0,0,0,1,1,1,1,1,1,1,1,1,1,0,1,0,1,1,1,1,1,1,1,1,1,1,1,0,0,0,0,0,1,0,0,1,1,0,0,1,1,1,1,1,1,"4,829",4.0,6269.21
9455235,"Pride Plaza Hotel Aerocity, New Delhi",28.55272102355957,77.12299346923828,1,1,0,0,1,1,1,1,1,1,1,1,1,0,1,0,1,1,1,1,1,1,1,1,1,1,1,1,1,0,0,1,0,0,1,0,1,1,1,1,0,0,0,0,1,1,1,"5,243",4.5,5919.0
3507485,"Red Fox Hotel, Delhi Airport",28.551837921142575,77.12110137939453,1,1,0,0,1,0,1,0,0,1,1,1,1,0,1,0,1,1,1,1,0,1,1,0,0,1,1,1,1,0,0,0,0,0,1,0,1,1,1,1,0,0,0,0,1,1,1,"3,210",4.5,1896.59
4884442,Holiday Inn New Delhi International Airport,28.54995536804199,77.12308502197266,1,1,0,0,1,1,1,1,1,1,1,1,1,0,1,0,1,1,1,1,1,1,1,1,1,1,1,1,1,0,1,0,0,0,1,0,1,1,1,1,0,1,0,0,1,1,1,"3,036",4.5,4131.79
2590189,ibis New Delhi Aerocity,28.55136299133301,77.12339782714844,1,1,0,1,0,1,0,1,0,1,1,0,1,0,1,0,1,1,1,1,1,1,1,0,0,1,1,1,1,0,0,0,1,0,1,0,1,1,1,1,0,1,0,1,1,1,0,"2,397",4.0,2105.6
13370039,The Neem,28.54974365234375,77.23268127441406,1,1,1,1,0,1,0,0,1,1,1,0,0,0,1,0,1,1,1,1,0,0,0,0,0,0,1,1,1,0,0,0,1,0,0,1,0,1,1,1,0,0,0,0,1,0,1,63,4.5,3920.0
11926258,Andaz Delhi,28.55429077148437,77.12186431884766,1,1,0,1,1,1,1,1,1,1,1,1,1,0,1,0,1,1,1,1,1,1,1,1,1,1,1,1,1,1,0,1,1,0,0,0,1,1,1,1,0,1,1,1,1,1,1,"3,384",5.0,4358.45
1533565,Piccadily Hotel,28.62895393371582,77.07886505126953,1,0,0,0,0,0,1,0,0,1,1,1,1,0,1,0,1,0,0,0,1,1,1,0,0,0,0,0,0,0,0,0,0,0,1,0,0,0,0,0,0,0,0,0,1,0,1,"2,095",4.0,5032.56
1546198,Hilton Garden Inn New Delhi / Saket,28.527971267700195,77.21760559082031,1,0,0,0,1,0,1,0,0,1,1,1,1,0,1,0,1,1,1,1,1,1,1,0,0,0,1,1,1,0,0,0,0,0,1,0,1,1,1,0,0,0,0,0,1,0,1,"2,077",4.5,5289.0
2082905,Taurus Sarovar Portico,28.54897499084473,77.1273422241211,1,1,0,1,0,1,1,1,0,1,1,0,0,0,1,0,1,0,1,1,1,1,1,0,0,1,1,1,1,0,0,0,0,0,1,0,1,1,1,0,0,1,0,0,1,0,1,894,4.0,4400.43
3510307,"The Leela Ambience Convention Hotel, Delhi",28.66208457946777,77.30216979980469,1,1,0,0,1,0,1,0,1,1,1,1,1,0,1,0,1,1,1,1,1,1,1,1,1,1,1,1,1,0,0,1,0,0,1,1,1,1,1,1,0,0,0,0,1,1,1,"4,165",5.0,6305.0
13964392,Hotel Grand Imperial,28.64580345153809,77.19219970703125,0,1,0,1,0,1,1,1,1,1,1,0,0,0,1,0,1,1,1,1,1,1,1,0,0,1,1,1,1,1,0,0,1,0,1,1,1,1,1,1,0,1,0,0,1,1,1,36,4.0,3507.19
2290968,WelcomHotel Dwarka,28.57918357849121,77.05593872070312,0,1,0,0,1,0,1,0,0,1,1,1,1,0,1,0,1,1,1,1,1,0,1,0,0,1,1,1,1,0,1,1,0,0,1,0,0,1,1,1,0,0,0,0,1,0,1,"4,109",4.5,3750.0
7171796,Park Inn By Radisson New Delhi IP Extension,28.630062103271484,77.3148193359375,1,1,0,0,0,1,1,1,1,1,1,1,0,0,1,0,1,1,0,0,1,1,1,0,0,1,0,1,0,0,0,0,0,0,0,0,0,1,1,0,0,0,0,0,1,1,0,741,4.0,6591.0
3668216,Park Plaza Delhi CBD Shahdara,28.6590633392334,77.298095703125,1,1,0,0,0,0,1,0,1,1,1,1,1,0,1,0,1,1,0,0,1,1,1,1,0,0,0,1,1,0,0,1,0,0,0,0,0,1,1,0,0,0,0,0,1,1,1,"1,770",4.5,4583.0
2193653,Holiday Inn Express New Delhi International Airport T3,28.56805992126465,77.12139892578125,1,1,0,0,0,0,0,0,0,1,1,0,0,0,0,0,1,0,0,0,0,0,0,0,0,1,1,0,1,0,0,0,0,0,1,0,0,0,0,1,0,0,0,0,1,0,0,789,3.5,12390.0
11999012,Park Inn by Radisson New Delhi Lajpat Nagar,28.56375312805176,77.23480987548828,1,1,0,0,0,1,1,1,1,1,1,1,1,0,1,0,1,1,1,1,1,1,1,0,0,1,1,1,1,0,0,0,0,0,1,0,1,1,1,1,0,0,0,0,1,1,1,208,4.0,8398.88
583011,Radisson Blu Marina Connaught Place,28.63374328613281,77.2170639038086,1,1,0,0,1,0,1,0,1,1,1,0,1,0,0,0,1,1,1,1,1,1,1,1,0,0,1,1,0,0,0,0,0,0,0,0,0,1,1,1,0,0,0,0,1,0,1,"1,538",3.5,6948.0
15148936,Hotel LA,28.68698692321777,77.10218811035156,1,1,1,1,0,1,1,1,1,1,1,1,1,0,1,0,1,0,0,0,1,1,1,1,1,0,1,0,0,0,0,0,0,0,1,0,0,1,1,1,0,1,0,0,1,1,1,69,4.5,2914.36
2445301,Hotel Delhi Aerocity,28.54206085205078,77.118408203125,1,0,0,0,0,0,1,0,0,1,1,0,0,0,1,0,1,1,1,1,0,0,0,0,0,1,0,0,1,0,0,0,0,0,0,0,0,1,1,0,0,0,0,0,1,0,0,734,4.0,1608.32
4579616,The Roseate New Delhi,28.531967163085934,77.1048812866211,1,1,0,0,0,0,1,0,1,1,1,1,1,0,1,0,1,0,1,1,1,1,1,1,1,0,1,1,0,0,0,1,0,0,1,0,1,1,1,1,0,0,0,1,1,0,0,"1,960",4.5,19557.73
1383462,The Lodhi,28.59167861938477,77.23812866210938,1,0,1,0,1,0,1,0,1,1,1,1,1,1,1,0,1,1,1,0,1,1,1,1,1,1,1,1,1,0,0,1,0,0,0,0,0,1,1,1,0,0,0,0,1,0,1,982,4.5,18878.0
1371418,Colonel's Retreat,28.56865882873535,77.23319244384766,1,1,0,1,0,1,0,0,0,1,1,0,0,0,1,0,0,1,1,1,0,0,0,0,0,0,1,0,1,1,0,0,0,0,0,0,0,0,1,0,0,1,0,0,1,0,0,928,4.5,2213.36
7767213,Pullman New Delhi Aerocity,28.554304122924805,77.12353515625,1,1,0,0,1,0,1,0,1,1,1,1,0,0,1,0,1,0,1,1,1,1,1,1,1,1,1,1,1,0,0,1,0,0,1,0,1,1,1,1,0,0,0,0,1,1,1,"3,178",5.0,5038.88
4451234,JW Marriott Hotel New Delhi Aerocity,28.55284881591797,77.12150573730469,1,1,0,1,1,1,1,1,1,1,1,1,1,1,1,0,1,0,1,1,1,1,1,1,1,1,1,1,1,0,0,1,0,0,0,1,1,1,1,0,0,0,0,1,1,1,1,"3,966",4.5,6844.0
301777,"ITC Maurya, a Luxury Collection Hotel, New Delhi",28.59712791442871,77.17361450195312,0,1,0,0,1,0,0,0,0,1,1,0,0,1,0,0,0,0,1,1,1,1,0,1,1,1,1,1,1,0,1,1,0,0,1,0,1,1,1,1,0,0,0,0,1,1,0,"4,970",4.5,11323.02
578527,"Shangri-La's - Eros Hotel, New Delhi",28.620832443237305,77.21797943115234,1,1,0,1,1,1,1,1,1,1,1,1,1,0,1,0,1,1,1,1,1,1,1,1,1,1,1,1,1,0,1,1,0,0,1,0,1,1,1,1,0,1,1,0,1,0,1,"4,442",4.5,8064.0
301904,Le Meridien New Delhi,28.61888885498047,77.21807098388672,0,1,0,0,1,0,1,0,0,1,1,1,1,0,1,0,1,1,1,1,1,1,1,1,1,1,1,1,1,0,1,1,0,0,0,0,1,1,1,1,0,0,0,0,1,0,1,"4,583",4.5,7000.0
306957,Radisson Blu Plaza Delhi Airport,28.54374122619629,77.11980438232422,1,1,0,1,1,1,1,1,1,1,1,1,1,0,1,0,1,1,1,1,1,1,1,1,1,1,1,1,1,0,1,1,1,0,1,0,1,1,1,1,0,1,0,1,1,1,1,"7,078",4.5,6336.0
3488035,The Umrao,28.52791404724121,77.10086059570312,1,0,1,0,1,0,1,0,1,1,1,1,1,1,1,0,1,1,1,1,1,1,1,1,1,0,1,1,1,0,0,1,0,0,1,0,0,1,1,0,0,0,0,0,1,0,1,935,4.5,7828.54
2144977,Crowne Plaza New Delhi Mayur Vihar Noida,28.590341567993164,77.29741668701172,1,1,0,1,0,1,1,0,1,1,1,1,1,0,1,0,1,1,1,1,1,1,1,1,1,1,1,1,1,0,0,0,0,0,1,0,1,1,1,0,0,1,1,1,1,1,0,"1,206",4.5,4093.77
299757,Sheraton New Delhi Hotel,28.526691436767575,77.21598815917969,1,1,0,0,1,0,1,0,1,1,1,1,1,0,1,0,1,1,0,1,1,1,1,1,1,1,1,1,1,0,0,1,0,0,1,0,1,1,1,1,0,0,0,0,1,1,1,"2,976",4.5,5824.0
1987285,Radisson Blu Hotel New Delhi Paschim Vihar,28.66713905334473,77.09123229980469,1,1,0,0,1,0,1,0,1,1,1,1,1,0,1,0,1,1,1,1,1,1,1,1,0,0,1,1,1,0,1,1,0,0,0,0,1,1,1,0,0,0,0,0,1,1,1,"2,517",4.5,5207.0
1477310,Hotel Amax Inn,28.64664649963379,77.21329498291016,1,1,0,0,0,0,1,0,0,1,1,0,0,0,0,0,1,1,1,1,0,0,0,0,0,1,1,1,1,0,0,0,0,0,1,0,1,1,1,0,0,0,0,0,1,1,0,"1,096",4.0,912.5
15521533,Colonels Retreat 2,28.57390022277832,77.23593139648438,1,1,0,1,0,1,1,0,0,0,1,0,0,0,1,0,1,1,0,0,0,0,0,0,0,0,1,0,1,0,0,0,0,0,0,0,0,0,1,0,0,1,0,0,1,0,0,17,5.0,2799.0
306931,Hyatt Regency Delhi,28.56916427612305,77.18533325195312,1,1,0,0,1,1,1,1,1,1,1,1,1,1,0,0,1,1,1,1,1,1,1,1,1,1,1,1,1,1,1,1,0,0,1,0,1,1,1,1,0,0,0,0,1,1,1,"3,744",4.5,6669.0
305021,"Ambassador, New Delhi - IHCL SeleQtions",28.601520538330078,77.22897338867188,1,1,0,0,1,1,1,0,1,1,1,0,1,0,1,0,1,1,1,1,1,1,1,1,0,1,1,1,1,0,1,0,0,0,1,0,1,1,1,1,0,1,0,0,1,1,1,"1,389",4.0,5376.0
304406,Maidens Hotel,28.67450523376465,77.22607421875,1,1,0,1,1,1,1,1,1,1,1,1,1,1,1,0,1,1,1,1,1,1,1,0,0,1,1,1,1,0,0,0,1,0,1,0,1,1,1,1,0,0,0,0,1,0,1,"1,615",4.5,7840.0
15090746,Inde Hotel Cyber City,28.49272727966309,77.09071350097656,1,1,0,1,0,1,1,1,1,1,1,0,0,0,1,0,1,1,0,0,1,1,1,0,0,0,0,1,1,0,0,0,1,0,0,0,0,1,1,0,0,1,0,0,1,1,0,63,4.0,5081.57
306949,The Suryaa New Delhi,28.56098556518555,77.2682876586914,1,1,0,0,1,1,1,1,0,1,1,1,1,0,1,0,1,1,0,1,1,1,1,1,1,1,1,1,1,0,1,1,1,0,1,0,0,1,1,1,0,0,0,1,1,0,1,"4,082",4.5,3202.0
13370039,The Neem,28.54974365234375,77.23268127441406,1,1,1,1,0,1,0,0,1,1,1,0,0,0,1,0,1,1,1,1,0,0,0,0,0,0,1,1,1,0,0,0,1,0,0,1,0,1,1,1,0,0,0,0,1,0,1,63,4.5,3920.0
4744115,The Golden Palms Hotel & Spa,28.62903022766113,77.31514739990234,1,0,0,0,0,0,1,0,0,1,1,0,0,0,1,0,1,1,0,0,1,1,1,1,0,0,0,0,0,0,0,0,0,0,0,0,0,1,1,0,0,0,0,0,1,0,0,159,3.5,3754.0
306951,Hotel Ajanta,28.645788192749023,77.21583557128906,1,0,0,0,0,0,1,0,1,1,1,0,0,0,0,0,1,1,1,1,0,0,0,0,0,1,1,1,1,0,0,0,0,0,1,0,0,1,1,0,0,0,0,0,1,0,1,"2,284",4.0,1842.59
304415,The Grand New Delhi,28.53906059265137,77.15225982666016,1,0,0,0,1,0,1,0,1,1,1,1,1,0,1,0,1,1,1,1,1,1,1,1,1,1,1,1,0,0,1,1,0,0,0,0,0,1,1,1,0,0,0,0,1,1,1,"2,094",4.0,4467.74
1757449,Treebo Tryst Royce,28.55973052978516,77.2730484008789,1,1,0,0,0,1,1,1,0,0,1,0,0,0,1,0,1,0,0,0,0,0,0,0,1,1,0,1,1,0,0,0,0,0,1,0,0,1,0,0,0,0,0,0,0,1,1,103,4.0,2011.83
549544,Hotel City Park,28.713830947875977,77.1390609741211,1,0,0,0,0,0,1,0,0,1,0,1,1,0,1,0,1,1,0,0,1,1,1,0,0,0,0,1,0,0,0,0,0,0,0,0,0,1,1,0,0,0,0,0,0,0,1,231,3.5,6476.55
13964392,Hotel Grand Imperial,28.64580345153809,77.19219970703125,0,1,0,1,0,1,1,1,1,1,1,0,0,0,1,0,1,1,1,1,1,1,1,0,0,1,1,1,1,1,0,0,1,0,1,1,1,1,1,1,0,1,0,0,1,1,1,36,4.0,3507.19
3520941,Hotel City Star,28.64479637145996,77.21490478515625,1,1,0,0,0,1,1,1,0,1,1,0,0,0,0,0,1,1,1,1,0,0,0,0,0,1,1,1,1,0,0,0,0,0,1,0,0,1,1,0,0,0,0,0,1,1,1,"1,742",4.5,2777.6
14004938,OYO 12191 Hotel Airlift,28.56329917907715,77.16414642333984,1,0,0,0,0,0,1,0,0,0,0,0,0,0,1,0,1,1,1,0,0,0,0,0,0,1,0,1,1,0,0,0,0,0,0,0,0,0,1,0,0,0,0,0,0,0,0,9,3.5,525.9
592998,Hotel Grand Godwin,28.64589881896973,77.2153091430664,1,0,0,0,0,0,1,0,1,1,1,0,0,0,0,0,1,1,0,1,0,0,0,0,0,0,1,1,0,0,0,0,0,0,1,0,0,1,1,0,0,0,0,0,1,1,0,"1,544",4.0,1795.64
304639,Jaypee Siddharth,28.642414093017575,77.17539978027344,1,1,0,0,0,0,1,1,1,1,1,1,1,0,1,0,1,1,1,1,1,1,1,1,1,1,1,1,1,0,0,0,1,0,1,0,1,1,1,0,0,1,0,0,1,0,1,"1,720",4.5,6720.0
1759051,The Leela Palace New Delhi,28.57989883422852,77.18975067138672,1,1,0,0,1,0,1,0,1,1,1,1,1,1,1,0,1,0,1,1,1,1,1,1,1,1,1,1,0,0,1,1,1,0,0,1,0,1,1,1,0,0,0,0,1,1,1,"3,776",5.0,18880.0
1371418,Colonel's Retreat,28.56865882873535,77.23319244384766,1,1,0,1,0,1,0,0,0,1,1,0,0,0,1,0,0,1,1,1,0,0,0,0,0,0,1,0,1,1,0,0,0,0,0,0,0,0,1,0,0,1,0,0,1,0,0,928,4.5,3315.2
14088516,Aloft New Delhi Aerocity,28.552452087402344,77.12358856201172,1,0,0,0,0,0,1,0,1,1,1,1,1,0,1,0,1,1,1,1,1,1,1,1,0,1,1,1,1,0,0,0,0,0,1,0,1,1,1,1,0,0,0,0,1,1,0,795,4.5,6136.0
2137617,Holiday Inn New Delhi Mayur Vihar Noida,28.59040832519531,77.2983627319336,1,1,0,1,0,0,1,1,1,1,1,1,1,0,1,0,1,1,1,1,1,1,1,0,0,1,1,1,1,0,0,0,0,0,1,0,1,1,1,1,0,1,0,0,1,1,1,"1,164",4.5,3489.92
1907730,Crowne Plaza Today New Delhi Okhla,28.52858543395996,77.27237701416016,1,1,0,0,1,0,1,0,1,1,1,1,1,0,1,0,1,1,1,1,1,1,1,1,1,1,1,1,1,1,0,0,0,0,1,0,1,1,1,1,0,0,0,0,1,1,1,"1,422",4.5,3583.1
302182,Taj Mahal Hotel,28.60473251342773,77.22358703613281,1,1,0,0,1,0,1,0,1,1,1,1,1,0,1,0,1,1,1,1,1,1,1,1,1,1,1,1,1,0,0,1,0,0,0,0,0,1,1,1,0,0,0,0,1,1,1,"2,708",4.5,12390.0
1067282,The Muse Sarovar Portico,28.545467376708984,77.2479019165039,1,0,0,0,0,0,1,0,1,1,1,0,0,0,1,0,1,1,0,0,1,1,1,0,0,0,0,1,0,0,0,0,0,0,0,0,0,1,1,0,0,0,0,0,1,1,0,552,4.5,4532.45
306957,Radisson Blu Plaza Delhi Airport,28.54374122619629,77.11980438232422,1,1,0,1,1,1,1,1,1,1,1,1,1,0,1,0,1,1,1,1,1,1,1,1,1,1,1,1,1,0,1,1,1,0,1,0,1,1,1,1,0,1,0,1,1,1,1,"7,078",4.5,6336.0
1371418,Colonel's Retreat,28.56865882873535,77.23319244384766,1,1,0,1,0,1,0,0,0,1,1,0,0,0,1,0,0,1,1,1,0,0,0,0,0,0,1,0,1,1,0,0,0,0,0,0,0,0,1,0,0,1,0,0,1,0,0,928,4.5,3315.2
306954,Jaypee Vasant Continental,28.55643081665039,77.16417694091797,1,0,1,0,1,0,1,0,1,1,1,1,1,0,1,0,1,1,1,1,1,1,1,1,0,0,1,1,0,0,0,0,0,0,1,0,0,1,1,0,0,0,0,0,1,0,1,"1,065",4.0,5612.32
7967791,Joey's Hostel,28.62908363342285,77.27445220947266,1,1,0,0,0,1,0,0,0,0,1,0,0,0,0,0,0,0,1,0,0,0,0,0,0,0,0,0,1,0,0,0,0,0,1,1,0,1,1,0,0,0,0,0,1,0,0,197,4.5,890.19
2355103,Caspia Hotel New Delhi Shalimar Bagh,28.725719451904297,77.14430236816406,1,0,0,0,0,0,1,0,1,1,1,0,1,0,1,0,1,1,0,0,1,1,1,0,0,0,1,0,0,0,0,0,0,0,1,0,0,1,1,0,0,0,0,0,1,0,0,502,4.0,2000.59
301910,The Metropolitan Hotel & Spa,28.63116455078125,77.20784759521484,1,1,0,1,1,1,1,1,1,1,1,1,1,0,1,0,1,1,1,1,1,1,1,1,0,1,1,1,1,0,1,0,1,0,1,1,1,1,1,0,0,1,0,1,1,1,1,"2,497",4.0,6676.99
299120,The Lalit New Delhi,28.631431579589844,77.22715759277344,1,1,0,0,1,0,1,0,1,1,1,1,1,1,1,0,1,1,1,1,1,1,1,1,1,1,1,1,1,0,1,1,0,0,1,0,0,1,1,1,0,0,0,0,1,1,1,"9,046",4.5,7737.0
1728106,Hindustan by Backpackers Heaven,28.64189147949219,77.21170043945312,1,1,0,0,0,0,0,0,0,1,1,0,0,0,0,0,0,1,0,1,0,0,0,0,0,1,0,0,0,1,1,0,0,0,0,0,0,0,1,0,0,0,0,0,1,0,1,223,4.5,1264.09
1200682,Hotel The Royal Plaza,28.62146377563477,77.21687316894531,1,1,0,1,0,1,1,1,1,1,1,1,1,1,1,0,1,1,1,0,1,1,1,1,1,1,1,1,1,0,0,1,0,0,1,0,1,1,1,1,0,0,0,0,1,1,1,"3,796",4.0,4435.2
10823872,Hotel Connaught Royale,28.632221221923828,77.22771453857422,1,0,0,0,0,0,1,0,0,0,1,0,0,0,0,0,1,1,0,0,1,1,1,0,0,0,0,1,0,0,0,0,0,0,0,0,0,1,1,0,0,0,0,0,1,0,1,102,4.0,3149.37
11045833,Hotel City Empire,28.644155502319336,77.21652221679688,1,0,0,0,0,0,0,0,0,0,1,0,0,0,0,0,0,1,0,0,0,0,0,0,0,1,1,1,1,0,0,0,0,0,0,0,0,1,1,0,0,0,0,0,1,1,1,98,4.5,998.73
446884,Capital O 16011 Hotel Mohan International,28.64514350891113,77.21748352050781,1,0,0,0,0,0,1,1,0,1,1,0,0,0,0,0,1,0,1,1,0,0,0,0,0,1,0,0,1,0,0,0,1,0,1,0,1,0,1,1,0,0,0,0,1,0,0,265,4.0,1236.02
3181614,Sarovar Portico Naraina,28.62598419189453,77.135009765625,1,0,0,0,0,0,1,0,1,1,1,0,0,0,1,0,1,1,0,0,1,1,1,0,0,0,0,0,0,0,0,0,0,0,0,0,0,1,1,0,0,0,0,0,1,0,1,232,4.0,3595.04
1099126,Thikana,28.55627250671387,77.2152099609375,1,1,0,0,0,1,0,1,0,0,1,0,0,0,1,0,0,1,1,0,0,1,0,0,0,0,1,0,1,0,0,0,0,0,0,0,1,1,1,0,0,0,0,0,1,0,0,652,5.0,4080.56
4107150,Hotel Delhi 55,28.64469337463379,77.2137222290039,1,0,0,0,0,0,1,0,0,1,1,0,1,0,1,0,1,1,0,0,0,1,0,1,0,0,0,1,0,0,0,0,0,0,0,0,0,1,1,0,0,0,0,0,1,1,0,176,4.0,2253.89
306948,The Ashok,28.59695053100586,77.1961898803711,1,0,0,0,1,0,1,0,0,1,1,1,1,0,1,0,1,1,0,0,1,1,1,1,0,0,0,1,0,0,0,0,0,0,0,0,0,1,1,0,0,0,0,0,1,1,1,779,3.0,10030.0
13397254,Hotel Golden Oasis,28.64169502258301,77.21422576904297,1,1,0,0,0,1,1,1,0,0,1,0,0,0,0,0,1,1,1,1,0,0,0,0,0,1,1,1,1,0,0,0,0,0,1,0,1,1,1,0,0,0,0,0,0,1,0,44,4.0,990.0
2392227,Hotel Divine Paradise,28.57548522949219,77.2640380859375,1,0,0,0,0,0,1,0,1,0,1,0,0,0,1,0,1,0,1,0,0,0,0,0,0,0,0,1,1,0,0,0,0,0,0,0,0,0,1,0,0,0,0,0,0,0,1,26,3.5,3509.36
620499,Hotel Sunstar Grand,28.64624786376953,77.18412017822266,1,1,0,1,0,1,1,1,0,1,1,0,0,0,0,0,1,1,1,1,1,1,0,0,0,1,1,1,1,1,0,0,1,0,1,0,1,1,1,0,0,0,0,0,1,0,0,869,4.5,2128.0
661234,Hotel Palace Heights,28.63387489318848,77.22145080566406,1,1,0,0,0,1,1,1,0,1,1,0,1,0,0,0,1,1,0,1,0,0,0,0,0,1,1,1,1,0,0,0,0,0,1,0,1,1,1,1,0,0,0,0,1,0,0,830,4.5,4825.54
304216,"The Oberoi, New Delhi",28.59640121459961,77.23975372314453,1,1,0,0,1,0,1,0,1,1,1,1,1,0,1,0,1,1,1,1,1,1,1,1,0,1,1,1,1,0,0,1,0,0,1,0,0,1,1,1,0,0,0,0,1,1,1,"2,596",4.5,21240.0
2145938,The Ashtan Sarovar Portico,28.56288719177246,77.20389556884766,1,1,0,0,0,0,1,0,1,1,1,0,0,0,1,0,1,0,1,1,1,1,1,0,0,1,1,1,0,0,0,0,1,0,1,0,1,1,1,1,0,0,0,0,1,1,0,549,4.0,2976.24
3528994,"Four Points by Sheraton New Delhi, Airport Highway",28.528249740600586,77.1001205444336,1,0,0,0,0,0,1,0,1,1,1,1,1,0,0,0,1,1,1,1,1,1,1,0,0,0,0,1,1,0,0,0,0,0,1,0,0,1,1,0,0,0,0,0,1,0,1,846,4.0,4704.0
1730273,Shervani Nehru Place,28.546672821044922,77.24987030029297,1,0,0,0,0,0,1,0,0,1,1,0,1,0,1,0,1,1,1,0,1,1,1,0,0,1,0,1,1,1,0,0,0,0,1,1,1,1,1,1,0,0,0,0,1,0,1,273,4.0,2776.48
1415547,Hotel Hari Piorko,28.64108467102051,77.21408081054688,1,1,0,0,0,1,1,1,0,1,1,0,0,0,0,0,1,1,1,0,0,0,0,0,0,1,1,1,1,1,0,0,0,0,1,0,0,1,1,0,0,0,0,0,1,0,1,"2,171",4.0,1172.17
1877803,Hotel Surya International,28.64816856384277,77.18846893310547,1,1,0,0,0,1,1,1,1,1,1,0,0,0,1,0,1,1,1,1,0,0,0,0,0,0,1,1,0,0,0,0,0,0,1,0,0,1,1,0,0,0,0,0,1,0,1,377,4.0,1771.76
729963,Rockland Hotel C R Park,28.54280090332031,77.24285888671875,1,1,0,0,1,0,1,1,1,1,1,1,0,0,1,0,1,1,0,0,1,1,1,0,0,0,0,1,0,0,0,0,1,0,1,0,0,1,1,0,0,0,0,0,1,0,1,347,4.0,3340.69
648112,On The House,28.563947677612305,77.19831848144531,1,0,0,0,0,1,0,0,0,1,1,0,0,1,1,0,0,1,1,1,0,0,0,0,0,0,1,0,1,0,0,0,0,0,1,0,0,0,1,0,0,0,0,0,1,0,0,292,4.5,2590.96
1142032,Hotel Shelton,28.641027450561523,77.21343231201172,1,0,0,0,0,0,1,0,0,1,1,0,0,0,0,0,1,1,1,1,0,0,0,0,0,0,0,1,0,0,0,0,0,0,1,0,0,1,1,0,0,0,0,0,1,1,0,581,4.0,1524.34
594146,Hotel Rupam,28.64542961120605,77.18489837646484,1,1,0,0,0,0,1,0,0,1,1,0,0,0,0,0,1,1,1,0,0,0,0,0,0,1,0,1,1,1,0,0,0,0,1,1,1,1,1,1,0,0,0,0,1,0,0,404,4.5,1443.93
8677936,Hotel Aman Continental,28.64170837402344,77.21714782714844,1,1,0,0,0,1,1,0,0,1,1,0,1,0,0,0,1,1,1,1,0,0,0,0,0,1,1,1,1,0,0,0,0,0,1,0,0,0,1,0,0,0,0,0,1,0,0,270,4.0,2216.72
7811005,Hotel Golden Grand,28.64728164672852,77.16582489013672,1,1,0,0,0,0,1,0,0,1,1,0,0,0,1,0,1,1,1,0,1,1,1,0,0,1,0,1,1,0,0,0,0,0,1,0,0,1,1,0,0,0,0,0,1,0,1,145,4.0,4213.84
15521533,Colonels Retreat 2,28.57390022277832,77.23593139648438,1,1,0,1,0,1,1,0,0,0,1,0,0,0,1,0,1,1,0,0,0,0,0,0,0,0,1,0,1,0,0,0,0,0,0,0,0,0,1,0,0,1,0,0,1,0,0,17,5.0,2799.0
1953067,Crowne Plaza New Delhi Rohini,28.72023963928223,77.1102066040039,1,1,0,0,1,1,1,1,1,1,1,1,1,0,1,0,1,1,1,0,1,1,1,1,1,1,1,1,1,0,1,1,1,0,1,1,0,1,1,1,0,1,0,1,1,1,1,"1,208",4.5,6387.75
678326,Hotel Singh International,28.648780822753906,77.18898010253906,1,1,0,0,0,0,1,1,0,0,1,0,0,0,1,0,1,1,1,1,0,0,0,0,0,1,1,1,1,0,0,0,0,0,1,0,1,1,1,0,0,0,0,0,0,0,1,67,4.0,2981.42
11929533,Anand Bhawan,28.50893211364746,77.1647720336914,1,0,0,0,0,1,1,0,0,1,1,0,0,0,1,0,1,0,0,0,0,0,0,0,0,0,1,0,1,0,0,0,0,0,1,0,0,0,1,0,0,0,0,0,0,0,0,24,4.5,3057.16
15687810,FabHotel Aries,28.54948425292969,77.12889099121094,1,0,0,0,0,0,0,0,0,0,1,0,0,0,0,0,1,0,0,0,0,0,0,0,0,0,0,1,0,0,0,0,0,0,0,0,0,0,1,0,0,0,0,0,0,0,0,25,4.5,2518.88
301408,Trimrooms Palm D'or @ New Delhi Railway Station,28.64449882507324,77.21755981445312,1,0,0,0,0,0,1,0,0,1,1,0,0,0,1,0,1,0,0,0,0,0,0,0,0,0,0,0,0,0,0,0,0,0,0,0,0,1,1,0,0,0,0,0,1,0,0,252,3.5,2037.62
1009502,Hotel Park Residency,28.55647087097168,77.20469665527344,1,0,0,0,0,1,1,1,1,0,1,0,1,0,1,0,1,1,1,0,0,1,0,0,0,0,1,0,1,0,0,0,0,0,1,0,1,1,1,0,0,0,0,0,1,1,0,92,4.0,1534.66
13964392,Hotel Grand Imperial,28.64580345153809,77.19219970703125,0,1,0,1,0,1,1,1,1,1,1,0,0,0,1,0,1,1,1,1,1,1,1,0,0,1,1,1,1,1,0,0,1,0,1,1,1,1,1,1,0,1,0,0,1,1,1,36,4.0,3507.19
2018311,Classic Diplomat - New Delhi,28.547882080078125,77.12606048583984,1,1,0,1,0,1,1,1,0,1,1,0,1,0,0,0,1,1,1,0,0,1,1,0,0,1,0,1,1,0,0,0,1,0,1,1,1,1,1,1,0,1,0,0,1,1,1,318,3.5,2067.65
3190155,China Town,28.6455192565918,77.18470001220703,1,1,0,0,1,0,1,1,0,0,1,0,0,0,0,0,1,1,1,1,0,1,0,0,0,1,1,0,1,0,1,0,0,0,1,0,0,1,1,0,0,0,0,0,0,0,0,23,3.5,2097.44
3291830,Grace Home,28.523578643798828,77.2041244506836,1,1,0,0,0,0,0,0,0,1,1,0,0,0,0,0,0,1,1,0,0,0,0,0,0,0,0,0,1,0,0,0,0,0,1,0,0,0,1,0,0,0,0,0,1,0,0,309,5.0,1442.16
2403623,Hotel Comfort Zone,28.540876388549805,77.24006652832031,1,1,1,1,0,1,1,1,1,1,1,0,0,0,1,0,0,1,1,1,1,1,1,0,0,0,1,0,1,0,0,0,1,0,1,0,0,1,1,0,0,1,0,0,1,1,1,43,3.5,2587.45
1807266,Saket Bed and Breakfast,28.52070426940918,77.2054672241211,1,1,0,0,0,1,0,1,0,1,1,0,0,0,1,0,0,0,1,0,0,0,0,0,0,1,1,0,1,0,0,0,1,0,0,1,1,1,1,0,0,0,0,0,1,0,0,419,5.0,2173.0
2200676,Hotel Regent Intercontinental,28.64846229553223,77.18830871582031,1,0,0,0,0,1,1,1,1,0,1,0,0,0,1,0,1,1,1,1,1,1,1,0,0,1,1,1,1,0,0,0,0,0,1,0,1,1,1,0,0,0,0,0,1,1,1,59,3.5,1297.52
301472,The Imperial Hotel,28.62554931640625,77.21826171875,1,1,0,0,0,0,1,0,1,1,1,1,1,1,1,0,1,1,1,1,1,1,1,1,1,1,1,1,1,0,1,1,0,0,1,0,0,1,1,1,0,0,0,0,1,1,1,"3,824",4.5,18054.0
7246943,Madpackers Delhi,28.5427188873291,77.21407318115234,1,1,0,0,0,0,0,0,0,0,1,0,0,0,0,0,0,0,1,0,0,0,0,0,0,1,0,0,1,1,0,0,0,0,1,0,0,0,1,0,0,0,0,0,1,0,0,432,4.5,1592.64
4173057,bloomrooms @ New Delhi Railway Station,28.64556312561035,77.2176742553711,1,1,0,0,0,1,0,1,0,1,1,0,0,0,0,0,1,1,1,1,0,0,0,0,0,1,1,0,1,0,0,0,0,0,1,0,1,0,1,0,0,0,0,0,1,0,0,"1,762",4.5,2658.27
8766678,WelcomHeritage Haveli Dharampura,28.65326499938965,77.23231506347656,1,1,0,0,0,1,1,1,1,1,1,0,1,0,0,0,1,1,1,1,0,0,0,0,0,0,1,1,1,1,0,0,0,0,1,0,0,1,1,1,0,0,0,0,1,0,1,395,4.5,13927.96
2138333,Fortune Park Boulevard,28.4483585357666,77.1841812133789,1,0,0,0,0,0,1,0,0,1,1,0,0,0,1,0,1,1,1,0,1,1,1,0,0,1,0,1,1,0,0,0,0,0,1,0,1,1,1,1,0,0,0,0,1,0,0,315,4.5,6150.09
734887,Hotel Sunstar Heritage,28.64520263671875,77.18319702148438,1,0,0,0,0,0,1,0,0,1,1,0,0,0,0,0,1,1,0,1,0,0,1,0,0,1,1,1,1,0,0,0,0,0,0,0,0,1,1,1,0,0,0,0,1,0,1,344,4.5,2576.0
940065,Hotel Emperor Palms,28.6458683013916,77.18800354003906,1,0,0,0,0,0,1,0,0,1,1,0,0,0,1,0,1,1,0,1,1,1,1,0,0,0,0,1,0,0,0,0,0,0,0,0,0,1,1,0,0,0,0,0,1,0,0,493,4.5,2430.4
3265162,bloomrooms @ Link Road,28.58148765563965,77.23963928222656,1,1,0,0,0,1,0,1,0,1,1,0,0,0,0,0,1,1,1,1,0,0,0,0,0,0,1,0,1,0,0,0,0,0,1,0,1,1,1,0,0,0,0,0,1,0,0,"1,189",4.5,3129.41
7159706,Zostel Delhi,28.64560890197754,77.21735382080078,0,1,0,0,0,0,0,0,0,0,1,0,0,0,0,0,0,0,1,0,0,0,0,0,0,0,1,0,1,0,0,0,1,0,1,0,1,0,1,0,0,0,0,0,0,0,0,990,4.5,1214.32
1845636,Hotel Cosy Grand,28.57511329650879,77.1784896850586,1,1,0,1,0,0,1,1,1,1,1,0,0,0,1,0,1,1,1,0,1,1,1,0,0,1,0,1,1,0,0,0,0,0,1,0,1,1,1,1,0,0,0,0,1,1,0,196,4.5,3614.55
1732300,Red Fox Hotel East Delhi,28.606969833374023,77.33299255371094,1,1,0,0,0,1,1,1,0,1,1,0,0,0,1,0,1,1,1,0,1,1,1,0,1,1,1,0,1,0,0,0,0,0,1,0,1,1,1,0,0,0,0,0,1,0,0,749,4.0,2816.4
3383038,Bed and Chai Guest House,28.54846000671387,77.2418441772461,1,1,0,0,0,0,0,0,0,0,1,0,0,0,0,0,0,1,1,0,0,0,0,0,0,0,0,0,1,0,0,0,0,0,0,0,0,0,1,0,0,0,0,0,1,0,0,239,4.5,1792.0
1404618,Home@F37,28.55530166625977,77.24325561523438,1,0,0,1,0,1,1,0,0,1,1,0,0,0,1,0,0,0,0,0,0,1,0,0,0,1,0,1,1,0,0,0,0,0,1,0,0,1,1,1,0,0,0,0,1,0,0,295,4.5,2721.6
2242637,Hotel Kabli,28.579729080200195,77.24964904785156,1,1,0,0,0,1,1,0,0,1,1,0,0,0,1,0,0,1,1,1,0,0,0,0,0,0,1,0,1,0,0,0,0,0,1,0,0,0,1,0,0,0,0,0,0,0,0,314,4.5,1265.0
15065328,Moustache Hostel Delhi,28.56452178955078,77.26786804199219,1,0,0,0,0,0,0,0,0,0,1,0,0,0,1,0,0,1,0,0,0,0,0,0,0,0,0,0,0,1,0,0,0,0,0,0,0,0,1,0,0,0,0,0,1,0,0,94,5.0,3055.97
633216,The Prime Balaji Deluxe @ New Delhi Railway Station Hotel,28.64529228210449,77.21746826171875,1,0,0,0,0,0,1,0,0,1,1,0,0,0,0,0,1,1,0,1,0,0,0,0,0,0,1,1,0,0,0,0,0,0,1,0,0,1,1,0,0,0,0,0,1,0,0,799,4.0,2333.18
13195735,GG Bed and Breakfast,28.59097099304199,77.25056457519531,1,1,0,0,0,1,1,1,0,1,1,0,0,0,1,0,1,1,0,0,0,1,0,1,0,1,0,1,1,0,0,0,0,0,1,0,0,0,1,0,0,0,0,0,1,0,1,49,5.0,5197.0
651014,Hotel Tara Palace Chandni Chowk,28.65432548522949,77.23448181152344,1,1,0,0,0,0,1,0,0,1,0,0,0,0,0,0,1,1,1,1,0,0,0,0,0,1,1,1,1,0,0,0,0,0,1,0,1,1,1,0,0,0,0,0,1,1,0,542,4.0,2690.36
1163205,Ginger New Delhi,28.64448356628418,77.22271728515625,1,0,0,0,0,0,1,0,0,1,1,0,0,0,0,0,1,1,0,0,0,0,0,0,0,0,0,0,0,0,0,0,0,0,0,0,0,1,1,0,0,0,0,0,1,0,0,"1,330",4.0,2384.48
13370039,The Neem,28.54974365234375,77.23268127441406,1,1,1,1,0,1,0,0,1,1,1,0,0,0,1,0,1,1,1,1,0,0,0,0,0,0,1,1,1,0,0,0,1,0,0,1,0,1,1,1,0,0,0,0,1,0,1,63,4.5,3920.0
653128,Hotel Bright,28.633134841918945,77.22282409667969,1,0,0,0,0,1,1,1,1,1,1,0,0,0,0,0,0,1,1,0,0,0,0,0,0,1,0,1,1,0,0,0,0,0,1,0,1,1,1,1,0,0,0,0,1,0,0,394,4.0,3224.0
1967002,Ahuja Residency Sunder Nagar,28.60517120361328,77.24072265625,1,1,0,0,0,1,1,1,1,1,1,0,0,0,1,0,1,1,1,1,0,0,0,0,0,0,1,0,1,0,0,0,0,0,1,0,1,1,1,0,0,0,0,0,1,0,0,199,4.0,4977.28
3746407,Hotel All Iz Well,28.641075134277344,77.21401977539062,1,0,0,0,0,0,1,0,0,1,1,0,0,0,0,0,1,1,1,0,0,0,0,0,0,1,1,1,0,0,0,0,0,0,0,0,0,1,1,0,0,0,0,0,1,1,1,339,4.0,1442.9
1822804,The Visaya,28.54361724853516,77.21099090576172,1,0,0,0,0,0,1,0,0,1,1,0,0,0,1,0,1,1,1,0,0,1,1,0,0,1,1,1,1,1,1,0,0,0,1,0,0,1,1,1,0,0,0,0,1,0,0,547,4.0,5156.32
1637855,Hotel Meridian Plaza,28.548248291015625,77.24114990234375,1,1,0,0,0,0,1,0,0,1,1,0,0,0,1,0,1,0,1,0,0,1,0,0,0,0,0,1,1,0,0,0,0,0,1,0,1,1,1,1,0,0,0,0,1,0,0,217,4.0,3448.16
9558795,Check In Room Main Bazar,28.658531188964844,77.04307556152344,1,0,0,0,0,1,1,1,0,0,1,0,0,0,0,0,1,1,1,0,0,0,0,0,0,1,0,0,0,0,1,0,0,0,1,0,1,1,1,0,0,0,0,0,1,1,0,119,5.0,2126.88
4510485,Hotel Nirmal Mahal,28.641536712646484,77.21268463134766,1,0,0,0,0,0,1,0,0,1,1,0,0,0,0,0,1,1,1,1,0,0,0,0,0,0,1,1,0,0,0,0,0,0,0,0,0,1,1,0,0,0,0,0,1,1,1,253,4.5,970.72
3514714,Hotel Eternity,28.52140998840332,77.214599609375,1,1,0,0,0,1,1,1,1,1,1,0,0,0,1,0,1,1,1,1,1,1,0,0,0,1,1,1,1,0,0,0,0,0,1,0,0,1,1,0,0,0,0,0,1,0,0,149,4.5,3112.43
1405314,Indee Home,28.546770095825195,77.24336242675781,1,0,0,0,0,0,1,0,0,0,1,0,0,0,1,0,0,1,1,0,0,0,0,0,0,0,0,0,1,1,0,0,0,0,0,0,0,0,1,0,0,0,0,0,0,0,0,75,4.5,3360.0
1389566,Pals Inn,28.64574813842773,77.17420959472656,1,1,0,0,0,1,1,1,0,0,1,0,0,0,0,0,1,1,1,1,1,1,1,0,0,1,1,1,1,0,0,0,0,0,1,0,1,1,1,0,0,0,0,0,1,0,1,100,4.5,3360.0
4299443,Hotel Toronto,28.64639091491699,77.20893859863281,1,1,0,0,0,1,1,1,0,1,0,0,0,0,1,0,0,1,1,1,0,0,0,0,0,1,1,1,1,0,1,0,0,0,1,0,1,1,1,0,0,0,0,0,1,0,0,346,4.0,1421.68
7927092,Hotel Gold Souk,28.65732002258301,77.19203186035156,1,1,0,0,0,1,1,1,0,0,1,0,0,0,1,0,1,0,1,1,1,0,0,0,1,1,1,1,1,0,0,0,0,0,1,0,0,1,1,0,0,0,0,0,1,1,0,106,4.5,2524.76
1385786,Hotel La Suite,28.642391204833984,77.17439270019531,1,0,0,0,0,0,1,0,0,1,1,0,0,0,1,0,1,1,0,0,0,1,0,0,0,0,0,1,0,0,0,0,0,0,0,0,0,1,1,0,0,0,0,0,1,0,1,379,4.0,3500.0
12669816,LetsBunk Poshtel,28.55258369445801,77.19448852539062,1,1,0,0,0,1,0,0,0,0,1,0,0,0,0,0,0,1,0,0,0,0,0,0,0,1,0,0,1,1,0,0,0,0,0,0,0,1,1,0,0,0,0,0,1,0,0,84,4.5,2800.0
1577259,Treebo Trend Citi International,28.64574432373047,77.19309997558594,1,1,0,0,0,0,1,0,0,1,1,0,0,0,1,0,1,1,1,1,0,1,0,0,1,1,1,0,1,0,0,0,0,0,1,0,0,1,1,1,0,0,0,0,1,1,0,160,4.0,2340.08
645168,The Stay Inn,28.50800323486328,77.20954895019531,1,0,0,0,0,1,1,1,0,0,1,0,0,0,0,0,1,1,1,0,0,0,0,0,0,1,0,0,1,0,0,0,0,0,0,0,0,1,1,1,0,0,0,0,0,0,0,60,4.5,3920.0
10361331,"Ameya Suites, New Delhi",28.540178298950195,77.29330444335938,1,0,0,0,0,0,1,0,1,0,1,0,1,0,1,0,1,1,0,0,1,1,1,0,0,1,0,1,0,0,0,0,0,0,0,0,0,1,1,0,0,0,0,0,1,1,1,73,4.5,4592.0
1532620,Almondz Hotel,28.64393615722656,77.17243194580078,1,0,0,0,0,1,1,0,0,1,1,0,0,0,1,0,1,0,0,0,0,0,0,0,0,0,0,0,1,0,0,0,0,0,1,0,0,0,1,0,0,0,0,0,1,0,1,307,3.5,2241.76
3669313,Hotel Regent Grand,28.643104553222656,77.1729965209961,1,0,0,0,0,1,1,1,1,1,1,0,0,0,1,0,1,1,1,1,1,1,1,0,0,1,1,1,1,0,0,0,0,0,1,0,1,1,1,0,0,0,0,0,1,1,0,239,4.0,3568.72
12124298,Hotel Shanti Plaza,28.64531517028809,77.2152328491211,1,1,0,0,0,0,1,0,0,0,1,0,0,0,1,0,1,1,0,0,0,0,0,0,0,0,0,0,1,0,0,0,0,0,1,0,0,0,1,0,0,0,0,0,0,0,0,84,4.5,1499.4
1421721,Hotel Aura,28.64602851867676,77.21468353271484,1,0,0,0,0,0,1,0,0,1,1,0,0,0,0,0,1,1,0,1,0,0,0,0,0,0,0,1,0,0,0,0,0,0,0,0,0,1,1,0,0,0,0,0,1,0,1,515,3.5,2016.32
1405664,FabHotel Cabana GK1,28.54792785644531,77.23960876464844,1,0,0,0,1,0,1,0,0,1,1,0,0,0,1,0,0,0,1,0,1,1,1,0,0,1,0,0,1,0,0,0,0,0,1,0,1,1,1,1,0,0,0,0,1,0,0,160,4.0,2374.15
1106551,Hotel Parkway Deluxe,28.64696311950684,77.21782684326172,1,0,0,0,0,0,1,0,0,1,1,0,0,0,1,0,0,0,0,0,0,0,0,0,0,0,0,1,0,0,0,0,0,0,0,0,0,1,1,0,0,0,0,0,1,0,0,139,4.0,960.93
2202187,Hotel Diplomat Residency,28.56599998474121,77.23027038574219,1,1,0,0,0,1,0,1,1,0,1,0,0,0,0,0,0,1,1,1,0,0,0,0,0,1,1,1,1,0,0,0,0,0,1,0,1,1,1,0,0,0,0,0,1,1,0,64,4.0,3077.67
3383035,Hotel Aman International,28.641401290893555,77.21592712402344,1,0,0,0,0,0,1,0,0,1,1,0,0,0,1,0,1,1,0,0,0,0,1,0,0,0,0,1,0,0,0,0,0,0,0,0,0,1,1,0,0,0,0,0,1,1,0,149,4.0,2689.27
1380935,Hotel Unistar,28.65302848815918,77.1920166015625,1,1,0,1,0,1,1,1,1,1,1,0,0,0,1,0,1,1,0,0,1,1,1,0,0,1,0,1,1,0,0,0,0,0,0,0,0,1,1,0,0,1,0,0,1,1,1,93,4.0,1149.0
3489790,The Allure - A Boutique Hotel,28.54837989807129,77.24183654785156,1,1,0,0,0,0,1,0,1,1,1,0,0,0,1,0,1,1,1,0,1,1,1,0,0,0,1,0,1,0,0,0,0,0,1,0,0,1,1,0,0,0,0,0,1,0,0,152,4.0,4928.0
1142142,Hotel Sita International,28.645397186279297,77.21233367919922,1,1,0,0,0,1,1,1,0,1,1,0,0,0,1,0,0,1,1,1,0,0,0,0,0,1,1,1,1,0,0,0,0,0,1,0,1,1,1,0,0,0,0,0,1,0,0,153,4.0,1680.0
2514395,Hotel Ivory 32,28.548200607299805,77.23855590820312,1,0,0,0,0,0,1,0,0,0,1,0,0,0,1,0,1,0,0,0,1,0,1,0,0,1,0,0,0,0,0,0,0,0,0,0,0,1,1,0,0,0,0,0,1,0,0,101,4.0,3080.0
19141490,Tobo Stays,28.54677963256836,77.24337005615234,0,0,0,0,0,0,0,0,0,0,0,0,0,0,0,0,0,0,0,0,0,0,0,0,0,0,0,0,0,0,0,0,0,0,0,0,0,0,0,0,0,0,0,0,0,0,0,9,5.0,890.0
