Name,Latitude,Longitude,Air conditioning,Housekeeping,Private balcony,Private bathrooms,VIP room facilities,Complimentary toiletries,Room service,Telephone,Minibar,Flatscreen TV,Wifi,Pool,Bar / lounge,Poolside bar,Free parking,Breakfast available,Restaurant,Airport transportation,Car hire,Taxi service,Banquet room,Meeting rooms,Conference facilities,Spa,Sauna,Currency exchange,24-hour security,Concierge,Baggage storage,Sun terrace,Shops,Butler service,First aid kit,Infirmary,24-hour front desk,Private check-in / check-out,Express check-in / check-out,Dry cleaning,Laundry service,Shoeshine,Ocean view,City view,Landmark view,Pool view,Non-smoking rooms,Smoking rooms available,Suites,Rating,Number of reviews,Price
The Park Chennai,13.053108215332031,80.25008392333984,1,1,0,1,1,1,1,1,1,1,1,1,1,1,1,1,1,1,1,1,1,1,1,1,1,1,1,1,0,0,0,1,1,0,1,0,1,1,1,1,0,1,0,0,1,1,1,4.0,"3,453",67.99
Hablis Hotel,13.00758171081543,80.20818328857422,1,0,0,0,1,0,1,0,1,1,1,1,1,0,1,1,1,1,1,1,1,1,1,0,0,0,1,1,0,0,0,0,0,0,1,0,0,1,1,0,0,0,0,0,1,0,1,4.5,"1,331",36.92
Turyaa Chennai - OMR,12.97339153289795,80.25115966796875,1,1,0,0,1,0,1,0,1,1,1,1,1,0,1,1,1,1,1,1,1,1,1,1,0,1,1,1,1,0,1,0,0,0,1,0,0,1,1,1,0,0,0,0,1,1,1,4.5,621,36.45
Hotel ibis Chennai Sipcot,12.83130931854248,80.23077392578125,1,1,0,0,0,0,1,0,0,1,1,0,1,0,1,0,1,1,1,1,1,1,1,0,0,1,1,1,1,0,0,0,0,0,1,0,1,1,1,1,0,0,0,0,1,1,0,4.5,872,38.1
Hilton Chennai,13.016701698303223,80.20477294921875,1,1,0,0,1,0,1,0,1,1,1,1,1,1,1,1,1,1,1,1,1,1,1,0,0,1,1,1,1,0,0,1,0,0,1,0,1,1,1,1,0,0,0,0,1,1,1,4.5,"3,608",60.97
Novotel Chennai Sipcot,12.831144332885742,80.23025512695312,1,1,0,0,1,0,1,0,1,1,1,1,1,0,1,1,1,1,0,1,1,1,1,0,0,0,1,1,1,0,0,0,0,0,0,0,0,1,1,0,0,0,0,0,1,1,1,5.0,"1,387",43.86
Novotel Chennai Chamiers Road,13.029826164245605,80.24435424804688,1,1,0,0,0,0,1,0,1,1,1,1,1,0,1,1,1,1,0,1,1,1,1,0,0,1,1,1,0,0,0,0,0,0,0,0,0,1,1,0,0,0,0,0,1,1,1,4.5,433,47.26
Taj Coromandel Chennai,13.05834674835205,80.24750518798828,1,1,0,0,1,0,1,0,1,1,1,1,1,0,1,0,1,1,1,1,1,1,1,1,1,1,1,1,1,1,1,1,0,0,1,0,0,1,1,0,0,0,0,0,1,0,1,4.5,"1,808",53.96
Sheraton Grand Chennai Resort & Spa,12.744546890258789,80.23914337158203,1,0,0,0,1,0,1,0,1,1,1,1,1,0,1,1,1,1,1,0,1,1,1,1,1,1,1,1,0,0,0,1,0,0,1,0,1,1,1,0,1,0,0,0,1,0,1,5.0,509,103.9668
Lemon Tree Hotel Shimona,13.020263671875,80.18495178222656,1,0,0,0,1,0,1,0,1,1,1,0,1,0,1,0,1,1,0,1,1,1,1,1,0,1,1,1,0,0,0,0,0,0,0,0,0,1,1,0,0,0,0,0,1,0,1,4.5,633,46.26
The Accord Metropolitan,13.046037673950195,80.24259185791016,1,1,0,0,1,1,1,0,1,1,1,0,1,0,1,1,1,1,1,1,1,1,1,1,1,1,1,1,0,0,0,1,1,0,1,1,1,1,1,1,0,1,0,0,1,1,1,4.5,"2,252",59.7
Novotel Chennai OMR Hotel,12.905181884765625,80.2293701171875,1,1,0,1,0,1,1,1,1,1,1,1,1,1,1,1,1,1,0,0,1,1,1,0,0,0,1,1,0,0,0,0,1,0,0,0,1,1,1,0,0,0,0,0,1,1,1,5.0,520,44.0
Holiday Inn Chennai OMR IT Expressway,12.98038101196289,80.25293731689453,1,1,0,0,1,0,1,0,1,1,1,1,1,0,1,1,1,1,1,0,1,1,1,0,0,1,1,1,1,0,0,0,0,0,1,0,1,1,1,0,0,0,0,0,1,1,1,5.0,964,68.57
The Belstead,13.062067031860352,80.24544525146484,1,1,0,0,1,0,1,0,1,1,1,0,0,0,1,0,1,1,1,0,1,1,0,0,0,1,1,1,1,0,1,0,0,0,1,1,1,1,1,1,0,0,0,0,1,0,1,4.0,166,22.56
Ibis Chennai OMR Hotel,12.905242919921875,80.22976684570312,1,1,0,1,1,1,1,1,0,1,1,1,1,1,1,1,1,1,0,1,1,1,1,0,0,0,1,1,0,0,0,0,1,0,0,0,1,1,1,0,0,1,0,0,1,1,0,5.0,273,41.0
Hotel Park Elanza Nungambakkam,13.05648136138916,80.24286651611328,1,0,0,0,0,0,1,0,0,0,0,1,1,0,1,0,1,1,0,0,0,0,0,1,0,1,0,1,1,0,0,0,0,0,0,0,0,0,1,0,0,0,0,0,1,0,1,4.5,76,27.52
ibis Chennai City Centre Hotel,13.057252883911133,80.25670623779297,1,1,0,0,0,0,1,0,0,1,1,0,0,0,1,1,1,1,0,0,0,1,1,0,0,0,0,1,1,0,0,0,0,0,1,0,0,1,1,0,0,0,0,0,1,1,0,4.5,520,42.67
Taj Club House,13.061456680297852,80.26408386230469,1,1,0,0,0,0,1,0,1,1,1,1,1,1,1,0,1,1,0,0,1,1,1,1,0,0,1,1,1,0,0,1,0,0,0,0,0,1,1,0,0,1,0,0,1,1,1,4.5,"1,635",48.03
"Vivanta Chennai, IT Expressway",12.90572452545166,80.22786712646484,0,1,0,0,1,0,1,0,0,1,1,1,1,0,1,1,1,1,1,0,1,1,1,1,1,1,1,1,1,0,1,1,0,0,1,0,0,1,1,0,0,0,0,0,1,0,1,4.5,978,35.82
New Woodlands Hotel,13.04543399810791,80.26200866699219,1,0,0,0,0,1,1,1,0,1,1,1,0,0,1,0,1,1,0,0,1,1,1,0,0,0,0,1,0,0,0,0,0,0,0,0,0,1,1,0,0,0,0,0,1,1,1,3.5,433,25.66
FabHotel Blossoms T Nagar,13.03836727142334,80.23982238769531,1,0,0,0,0,1,1,0,0,0,1,0,0,0,1,0,1,0,0,0,0,0,0,0,0,0,0,1,0,0,0,0,0,0,0,0,0,0,1,0,0,0,0,0,0,0,0,3.5,77,16.09
Green Meadows Resort,12.961438179016113,80.26062774658203,1,1,0,0,0,1,1,1,0,0,1,1,1,0,1,1,1,0,0,0,1,1,1,0,0,0,1,1,0,0,0,0,0,0,1,0,0,1,1,0,0,0,0,1,0,0,0,4.0,181,60.98
New Regency,13.063617706298828,80.27704620361328,1,1,0,0,1,0,1,0,0,0,0,0,0,0,1,0,0,0,0,0,0,0,0,0,0,0,0,0,1,1,1,0,0,0,1,1,1,1,1,0,0,0,0,0,0,0,0,3.5,8,6.25
OYO 1001 Palmtree Corporate Anna Nagar,13.084425926208496,80.20561218261719,1,0,0,0,0,1,1,1,0,0,1,0,0,0,1,0,0,1,0,0,1,1,1,0,0,0,0,1,0,0,0,0,0,0,0,0,0,0,0,0,0,0,0,0,1,0,1,3.5,17,29.31
The Leela Palace Chennai,13.017175674438477,80.2737808227539,1,1,1,0,1,0,1,0,1,1,1,1,1,1,1,1,1,1,1,1,1,1,1,1,1,1,1,1,1,0,0,1,0,0,1,1,1,1,1,1,1,0,0,0,1,1,1,5.0,"3,514",106.71
Ramada Plaza by Wyndham Chennai,13.012162208557129,80.22236633300781,1,1,0,0,1,0,1,0,1,1,1,0,0,0,1,0,1,1,1,1,1,1,1,0,0,1,1,1,1,0,0,1,0,0,1,0,1,1,1,0,0,0,0,0,0,0,1,5.0,433,60.96
The Residency Towers,13.040555953979492,80.2437973022461,1,0,0,0,1,0,1,0,1,1,1,1,1,0,1,0,1,1,1,1,1,1,1,1,0,0,1,1,0,0,0,1,0,0,1,0,0,1,1,1,0,0,0,0,1,0,1,4.5,"2,137",47.58
GreenPark Chennai,13.05105972290039,80.2084732055664,1,0,0,0,1,0,1,0,1,1,1,1,1,0,1,1,1,1,1,1,1,1,1,1,0,1,1,1,1,0,0,1,0,0,1,0,0,1,1,0,0,0,0,0,1,1,1,4.5,"2,482",55.56
"ITC Grand Chola, Chennai - a Luxury Collection Hotel",13.010644912719727,80.22044372558594,1,1,0,1,1,1,1,1,1,1,1,1,0,0,0,1,1,1,1,1,1,1,1,1,1,1,1,1,1,0,0,1,1,0,1,1,1,1,1,1,0,1,0,1,1,1,1,4.5,"5,063",83.1853
Hyatt Regency Chennai,13.042895317077637,80.24856567382812,1,1,0,0,1,0,1,0,1,1,1,1,1,0,1,0,1,1,0,1,1,1,1,1,1,0,1,1,1,0,0,1,0,0,1,0,0,1,1,1,0,0,0,0,1,1,1,4.5,"3,070",68.83
Grand Chennai By GRT Hotels,13.04006290435791,80.24507904052734,1,1,0,1,1,1,1,1,1,1,1,1,1,0,1,1,1,1,1,1,1,1,1,1,1,1,1,1,0,0,0,1,1,0,1,1,1,1,1,0,0,1,1,0,1,0,1,4.5,"2,031",47.17
"Lemon Tree Hotel, Chennai",13.010955810546875,80.22467803955078,1,1,0,0,1,0,1,0,1,1,1,1,1,0,1,0,1,1,1,1,1,1,1,0,0,0,1,1,1,0,0,0,0,0,1,0,0,1,1,0,0,0,0,0,1,1,0,4.5,"2,628",48.18
Somerset Greenways Chennai,13.017248153686523,80.2706069946289,1,0,1,0,0,0,1,0,0,1,1,1,1,0,1,1,1,1,0,0,1,1,1,0,0,0,1,1,0,0,0,0,0,0,0,0,0,1,1,0,0,0,0,0,1,1,1,4.5,518,67.44
"Taj Connemara, Chennai",13.063065528869629,80.26167297363281,1,1,0,0,1,0,1,0,1,1,1,1,1,1,1,1,1,1,1,1,1,1,1,1,0,0,1,1,1,0,0,1,0,0,1,0,0,1,1,1,0,0,0,0,1,1,1,4.5,"1,422",63.2
Raj Palace Sundar,13.018381118774414,80.26083374023438,1,0,0,0,0,0,1,0,1,1,1,1,0,0,1,0,1,1,1,1,1,1,1,1,0,0,1,1,1,0,0,0,0,0,0,0,0,1,1,0,0,0,0,0,1,1,0,4.5,804,38.11
Regenta Central RS,12.835634231567383,80.22913360595703,1,1,0,1,1,1,1,1,1,1,1,1,0,0,1,1,1,1,1,0,1,1,1,0,0,1,1,1,1,0,1,0,1,0,1,1,1,1,1,1,1,1,1,1,1,0,1,5.0,111,36.57
"Trident, Chennai",12.993619918823242,80.18612670898438,1,1,0,0,1,0,1,0,1,1,1,1,1,0,1,1,1,1,0,1,1,1,1,1,0,1,1,1,0,0,0,1,0,0,1,0,1,1,1,0,0,0,0,0,1,1,1,4.5,"1,717",76.23
Radisson Blu Hotel Chennai City Centre,13.066944122314453,80.25555419921875,1,1,0,0,1,0,1,0,1,1,1,1,1,0,1,0,1,1,0,0,1,1,1,1,0,0,1,1,0,0,0,0,0,0,0,0,0,1,1,0,0,0,0,0,1,0,1,4.0,"1,130",42.02
Abu Sarovar Portico,13.079380989074707,80.25228118896484,1,0,0,0,0,0,1,0,0,1,1,0,1,0,1,0,1,1,0,0,1,1,1,0,0,0,1,1,0,0,0,0,0,0,0,0,0,1,1,0,0,0,0,0,1,0,1,4.0,334,29.3
Raj Palace,13.037487983703613,80.23961639404297,1,1,0,0,0,0,1,0,1,1,1,0,1,0,1,1,1,1,1,1,1,1,1,0,0,1,1,1,1,0,0,0,0,0,1,0,1,1,1,0,0,0,0,0,1,1,1,4.5,392,30.27
"The Raintree Hotel, St.Mary's",13.028605461120605,80.25273132324219,1,0,0,0,0,0,1,0,1,1,1,1,1,1,1,0,1,1,1,1,1,1,1,0,0,0,1,1,1,0,0,1,0,0,1,0,0,1,1,0,0,0,0,0,1,0,1,4.5,"1,482",73.27
Fairfield by Marriott Chennai OMR,12.875883102416992,80.22721099853516,1,1,0,1,0,1,1,1,1,1,1,0,0,0,1,1,1,1,1,1,1,1,1,0,0,1,1,1,1,0,0,0,0,0,1,0,0,1,1,1,0,1,0,0,1,1,1,4.5,160,34.6696
Hotel Southern Comfort,12.985940933227539,80.17442321777344,1,1,0,0,0,0,1,1,1,1,1,0,0,0,1,1,1,1,0,1,1,1,1,0,0,0,0,1,1,0,0,0,0,0,1,0,0,1,1,0,0,0,0,0,1,1,1,4.0,210,49.71
Peace Inn,13.061384201049805,80.27537536621094,1,0,0,0,0,0,1,0,0,0,1,0,0,0,1,0,0,1,1,0,0,1,0,0,0,1,0,0,0,0,0,0,0,0,1,0,0,1,1,0,0,0,0,0,0,0,1,4.0,102,25.15
The Residency,13.045025825500488,80.24053955078125,1,0,0,0,1,0,1,0,1,1,1,0,1,0,1,0,1,1,0,1,1,1,1,0,0,0,0,1,0,0,0,0,0,0,0,0,0,1,1,0,0,0,0,0,1,0,1,4.5,"1,096",45.73
Regenta Central Deccan,13.04643726348877,80.26663970947266,1,0,0,0,0,0,1,0,0,1,1,0,1,0,1,1,1,1,0,0,1,1,1,0,0,0,0,1,0,0,0,0,0,0,0,0,0,1,1,0,0,0,0,0,1,1,1,3.5,308,46.65
Courtyard by Marriott Chennai,13.046036720275879,80.24799346923828,1,1,0,0,1,0,1,0,0,1,1,0,1,0,1,1,1,1,1,1,1,1,1,1,0,1,1,0,1,0,0,1,0,0,1,0,1,1,1,0,0,0,0,0,1,1,1,4.5,"3,128",62.5
The Westin Chennai Velachery,12.98952579498291,80.22087860107422,1,0,0,0,1,0,1,1,1,1,1,1,1,0,1,1,1,1,1,1,1,1,1,1,1,1,1,1,1,0,0,0,0,0,1,0,0,1,1,1,0,0,0,0,1,1,1,4.5,"2,102",65.0056
Holiday Inn Express Chennai OMR Thoraipakkam,12.93043327331543,80.23150634765625,1,1,0,1,0,0,1,1,0,1,1,0,0,0,1,1,1,1,1,0,0,0,0,0,0,0,1,0,0,0,0,0,1,0,1,0,1,1,1,1,0,0,0,0,1,0,0,4.5,363,27.43
"Welcomhotel GST Road, Chennai",12.764748573303223,80.00597381591797,1,1,0,1,1,1,1,1,1,1,1,1,1,1,1,0,1,1,1,1,1,1,1,1,0,1,1,1,1,0,0,1,1,0,0,0,1,1,1,1,0,1,0,1,1,1,1,5.0,"1,113",60.98
The Metroplace Hotels,12.983673095703125,80.24632263183594,1,1,0,1,1,1,1,1,1,1,1,0,1,0,1,1,1,1,1,0,1,1,1,1,0,1,0,1,1,0,1,0,0,0,1,0,1,1,1,1,0,1,0,0,1,1,0,4.0,214,30.47
Radha Regent,13.065140724182129,80.21054077148438,1,0,0,0,0,0,1,0,0,1,1,0,1,0,1,0,1,1,0,0,1,1,1,0,0,0,0,1,0,0,0,0,0,0,0,0,0,1,1,0,0,0,0,0,1,0,1,4.0,556,52.15
Park Hyatt Chennai,13.010819435119629,80.22345733642578,1,1,0,1,1,1,1,1,1,1,1,1,1,1,1,1,1,1,1,1,1,1,1,1,1,1,1,1,1,1,0,1,1,0,1,0,1,1,1,1,0,1,0,0,1,1,1,4.5,"1,647",90.7
Maple Tree Hotels,13.055042266845703,80.2112045288086,1,1,0,0,1,1,1,1,0,1,1,0,1,0,1,1,1,1,1,0,1,1,1,0,0,1,1,1,1,0,0,0,0,0,1,1,1,1,1,1,0,0,0,0,1,1,1,4.5,187,37.91
Days Hotel by Wyndham Chennai OMR,12.80379867553711,80.22460174560547,1,0,0,0,0,0,1,0,1,0,1,0,1,0,1,0,1,1,0,0,1,1,1,1,0,0,0,1,1,0,0,1,0,0,0,0,0,1,1,0,0,0,0,0,1,1,1,4.5,109,48.0
Crowne Plaza Chennai Adyar Park,13.029521942138672,80.24954986572266,1,1,0,0,0,0,1,0,1,1,1,1,1,0,1,0,1,1,0,0,1,1,1,1,1,1,1,1,1,0,0,1,0,0,0,0,0,1,1,0,0,0,0,0,1,0,1,4.5,"1,324",57.4207
"Keys Select Hotel Katti-Ma, Chennai",12.990203857421875,80.25650024414062,1,0,0,0,0,0,1,0,0,1,1,0,1,0,1,1,1,1,1,0,1,1,1,0,0,1,0,1,1,0,0,0,0,0,1,0,0,1,1,0,0,0,0,0,1,0,1,4.5,356,23.58
Four Points by Sheraton Chennai OMR,12.875642776489258,80.22700500488281,1,1,0,0,1,1,1,1,1,1,1,1,0,0,1,0,1,1,0,0,0,1,0,0,0,1,1,1,1,1,0,1,1,0,1,0,1,1,1,1,0,1,1,0,1,1,1,5.0,38,30.3215
Zone by The Park Orr Chennai,12.949044227600098,80.19979095458984,1,1,0,1,1,1,1,1,1,1,1,1,1,1,1,1,1,1,1,0,1,1,1,1,0,1,1,1,0,1,0,0,1,0,1,1,1,1,1,1,0,0,0,0,1,0,1,4.5,209,36.27
Design Hotel Chennai by juSTa,12.991264343261719,80.2166519165039,1,1,0,0,1,0,1,0,1,1,1,0,0,0,1,0,1,1,1,0,0,1,0,0,0,1,0,1,1,0,1,0,0,0,1,1,1,1,1,1,0,0,0,0,1,0,0,4.5,329,69.87
Raj Park Chennai,13.044318199157715,80.25955200195312,1,0,0,0,0,0,1,0,1,1,1,1,1,0,1,1,1,1,0,0,1,1,1,1,0,0,0,1,0,0,0,0,0,0,0,0,0,1,1,0,0,0,0,0,1,1,1,3.5,374,41.58
Pride Hotel Chennai,13.079047203063965,80.24906921386719,1,0,0,0,0,0,1,0,0,1,1,1,1,0,1,0,1,1,1,1,1,1,1,1,0,1,0,1,0,0,0,0,0,0,0,0,0,1,1,0,0,0,0,0,1,0,1,3.5,524,55.73
The Elite Grand Hotel,12.864053726196289,80.226806640625,1,0,0,0,0,0,0,0,1,1,1,1,1,0,1,0,1,1,0,0,1,1,1,0,0,1,0,0,1,0,0,0,0,0,0,0,0,1,1,0,0,0,0,0,1,0,1,4.0,268,91.47
NK Grand Park Hotel,12.970843315124512,80.14994049072266,1,0,0,0,0,0,1,0,0,1,1,0,0,0,1,1,1,1,0,0,1,1,1,0,0,0,0,1,0,0,0,0,0,0,0,0,0,1,1,0,0,0,0,0,1,1,1,4.0,143,32.0
Benzz Park,13.046034812927246,80.23957061767578,1,0,0,0,0,0,1,0,0,1,0,0,1,0,1,0,1,0,0,0,1,1,1,0,0,0,0,1,0,0,0,0,0,0,0,0,0,1,1,0,0,0,0,0,0,0,1,3.5,177,29.2
Bhimaas Temple Tree Hotel,13.052105903625488,80.2122802734375,1,1,0,0,0,1,1,1,0,1,1,0,0,0,1,1,1,0,0,0,0,1,1,0,0,0,1,1,1,0,0,0,0,0,1,0,0,1,1,0,0,0,0,0,0,0,1,4.0,113,24.79
Grand Residence,13.037647247314453,80.15969848632812,1,0,0,0,0,0,1,0,1,0,1,1,1,0,1,1,1,0,0,0,1,1,0,1,0,0,0,1,0,0,0,0,0,0,0,0,0,1,1,0,0,0,0,0,0,1,1,3.0,64,35.95
The Lotus Hotel Sameera,13.066766738891602,80.27012634277344,1,1,0,0,1,1,1,1,0,0,1,0,0,0,1,0,1,1,1,1,0,1,0,0,0,1,1,1,1,0,0,0,0,0,1,0,1,1,1,1,0,0,0,0,1,0,0,4.0,76,38.35
Crescent Inn,12.976107597351074,80.25871276855469,1,0,0,0,0,0,1,1,1,0,1,0,0,0,1,0,0,1,1,0,1,1,1,0,0,1,0,0,1,0,0,0,0,0,1,1,1,0,1,1,0,0,0,0,1,1,0,4.0,88,25.52
Just Guest House,12.987299919128418,80.18878173828125,1,1,0,0,0,1,1,1,0,0,0,0,0,0,0,0,0,0,1,1,0,1,0,0,0,1,1,1,1,1,1,0,0,0,1,1,1,1,0,1,0,0,0,0,0,0,0,4.0,60,22.45
Treebo Trend Adin Residence,13.013346672058105,80.18419647216797,1,0,0,0,0,1,0,1,0,0,1,0,0,0,1,1,0,1,0,0,0,0,0,0,1,1,1,0,1,0,0,0,0,0,1,0,0,0,0,0,0,0,0,0,1,0,1,4.0,77,34.97
Treebo Trend Nestlay Airport,12.997909545898438,80.19332122802734,1,1,0,0,0,1,1,1,0,1,1,0,0,0,1,1,0,0,0,1,0,0,0,0,0,0,0,0,0,0,0,0,0,0,1,0,0,0,1,0,0,0,0,0,1,0,0,3.5,127,33.02
Hilarity Inn,12.874629020690918,79.99526977539062,0,0,0,0,1,1,1,1,0,0,1,0,1,0,1,0,1,1,1,0,0,1,0,0,0,1,0,1,0,0,0,0,0,0,1,1,1,1,1,1,0,0,0,0,0,0,1,4.0,24,39.7
Hilarity Inn,12.874629020690918,79.99526977539062,0,0,0,0,1,1,1,1,0,0,1,0,1,0,1,0,1,1,1,0,0,1,0,0,0,1,0,1,0,0,0,0,0,0,1,1,1,1,1,1,0,0,0,0,0,0,1,4.0,24,39.7
Season 4 Residences,13.035360336303711,80.24755096435547,1,1,0,0,0,1,1,1,0,0,1,0,0,0,0,0,1,1,1,1,1,1,0,0,0,1,1,1,1,0,0,0,0,0,1,0,1,1,1,1,0,0,0,0,0,0,0,3.5,59,24.31
Thangam Balaji Guest House,13.039705276489258,80.24720764160156,1,1,0,0,0,0,0,0,0,0,0,0,0,0,0,0,0,0,1,1,0,0,0,0,0,0,1,0,0,0,0,0,0,0,1,0,0,1,1,0,0,0,0,0,0,0,0,4.5,14,16.49
Jaag Hotel,13.052528381347656,80.23573303222656,0,0,0,0,0,0,0,0,0,0,0,0,1,0,0,0,1,0,0,0,0,0,0,0,0,0,0,0,0,0,0,0,0,0,0,0,0,0,1,0,0,0,0,0,0,0,0,5.0,4,41.82
Sree Devi Residency,13.049699783325195,80.24832153320312,1,0,0,0,0,1,1,1,0,0,1,0,0,0,1,0,0,1,0,0,0,0,0,0,0,0,0,0,0,0,0,0,0,0,0,0,0,0,1,0,0,0,0,0,0,0,1,4.0,11,25.39
Zaith Residency Premium Business Class Hotel,13.056794166564941,80.25206756591797,1,1,0,0,0,1,1,0,0,0,1,0,0,0,1,1,0,1,1,1,0,0,0,0,0,1,1,0,1,0,0,0,0,0,1,0,1,1,1,1,0,0,0,0,1,1,1,3.5,33,21.85
Lloyds Guest House,13.039386749267578,80.24223327636719,1,1,1,1,0,1,1,1,0,1,1,0,0,0,1,0,0,1,1,1,0,0,0,0,0,1,0,1,1,0,0,0,0,0,1,0,0,1,1,0,0,1,0,0,1,0,0,4.0,9,20.57
Purpletree Place Beebiz,13.015439987182617,80.22586059570312,1,1,0,0,0,1,1,1,0,0,1,0,0,0,1,1,1,1,0,0,0,1,0,0,0,0,1,0,1,0,0,0,0,0,1,0,0,1,1,1,0,0,0,0,1,1,0,5.0,4,41.14
Ashok Residency,13.021129608154297,80.20417785644531,1,1,0,1,1,1,1,1,1,1,1,0,1,0,1,1,1,1,1,1,1,1,1,0,0,0,0,1,1,0,1,0,0,0,1,1,1,1,1,0,0,1,1,0,1,1,1,3.5,35,29.8
